{
	"Chelsea/Greenwhich market": [
		{
			"name": "Stile's Farmers Market Wholesale & Retail",
			"latitude": 40.7549,
			"longitude": -73.9949,
			"venue_type": "MARKET",
			"rating": 4.5,
			"address": "476 9th Ave New York, NY 10018 United States"
		},
		{
			"name": "Union Square Greenmarket",
			"latitude": 40.7365,
			"longitude": -73.9904,
			"venue_type": "MARKET",
			"rating": 4.6,
			"address": "Union Square W & E 17th St New York, NY 10003 United States"
		},
		{
			"name": "Chelsea Market",
			"latitude": 40.7424,
			"longitude": -74.0061,
			"venue_type": "MARKET",
			"rating": 4.5,
			"address": "75 9th Ave New York, NY 10011 United States"
		},
		{
			"name": "Escape Virtuality",
			"latitude": 40.747,
			"longitude": -73.9916,
			"venue_type": "OTHER",
			"rating": 4.5,
			"address": "130 W 29th St New York, NY 10001 United States"
		},
		{
			"name": "Hudson Market",
			"latitude": 40.7507,
			"longitude": -74.0023,
			"venue_type": "CONVENIENCE_STORE",
			"rating": 3.9,
			"address": "303 10th Ave New York, NY 10001 United States"
		},
		{
			"name": "Whole Foods Market",
			"latitude": 40.7529,
			"longitude": -73.9997,
			"venue_type": "GROCERY",
			"rating": 4.4,
			"address": "450 W 33rd St New York, NY 10001 United States"
		},
		{
			"name": "Hudson Yards",
			"latitude": 40.7534,
			"longitude": -74.0011,
			"venue_type": "SHOPPING_CENTER",
			"rating": 4.6,
			"address": "20 Hudson Yards New York, NY 10001 United States"
		},
		{
			"name": "MUJI Chelsea",
			"latitude": 40.7395,
			"longitude": -73.9926,
			"venue_type": "SHOPPING_CENTER",
			"rating": 4.5,
			"address": "16 W 19th St New York, NY 10011 United States"
		},
		{
			"name": "Westside Market NYC",
			"latitude": 40.7388,
			"longitude": -73.9991,
			"venue_type": "GROCERY",
			"rating": 4.2,
			"address": "77 7th Ave New York, NY 10011 United States"
		},
		{
			"name": "Whole Foods Market",
			"latitude": 40.7546,
			"longitude": -73.9847,
			"venue_type": "GROCERY",
			"rating": 4.4,
			"address": "1095 6th Ave New York, NY 10036 United States"
		},
		{
			"name": "Chelsea Exclusive New York ny",
			"latitude": 40.744,
			"longitude": -73.999,
			"venue_type": "APPAREL",
			"rating": 4.7,
			"address": "222 8th Ave New York, NY 10011 United States"
		},
		{
			"name": "Beyond the Edge",
			"latitude": 40.7538,
			"longitude": -74.0012,
			"venue_type": "GIFTS",
			"rating": 4.4,
			"address": "30 Hudson Yards New York, NY 10001 United States"
		},
		{
			"name": "Memories of New York",
			"latitude": 40.7432,
			"longitude": -73.9888,
			"venue_type": "SOUVENIR_SHOP",
			"rating": 4.7,
			"address": "206 5th Ave New York, NY 10010 United States"
		},
		{
			"name": "Whole Foods Market",
			"latitude": 40.745,
			"longitude": -73.9953,
			"venue_type": "GROCERY",
			"rating": 4.2,
			"address": "250 7th Ave New York, NY 10001 United States"
		},
		{
			"name": "4 Union Square",
			"latitude": 40.7348,
			"longitude": -73.9915,
			"venue_type": "SHOPPING_CENTER",
			"rating": 4.4,
			"address": "40 E 14th St New York, NY 10003 United States"
		},
		{
			"name": "City Sightseeing New York",
			"latitude": 40.7597,
			"longitude": -74.0003,
			"venue_type": "OTHER",
			"rating": 3.8,
			"address": "455 12th Ave New York, NY 10018 United States"
		},
		{
			"name": "Whitney Museum of American Art",
			"latitude": 40.7396,
			"longitude": -74.0089,
			"venue_type": "MUSEUM",
			"rating": 4.5,
			"address": "99 Gansevoort St New York, NY 10014 United States"
		},
		{
			"name": "Manhattan Fruit Market",
			"latitude": 40.7428,
			"longitude": -74.0063,
			"venue_type": "MARKET",
			"rating": 4.3,
			"address": "448 W 16th St New York, NY 10011 United States"
		},
		{
			"name": "Westside Market NYC",
			"latitude": 40.7437,
			"longitude": -73.9952,
			"venue_type": "GROCERY",
			"rating": 4.3,
			"address": "170 W 23rd St New York, NY 10011 United States"
		},
		{
			"name": "Madame Tussauds New York",
			"latitude": 40.7564,
			"longitude": -73.9888,
			"venue_type": "MUSEUM",
			"rating": 4.4,
			"address": "234 W 42nd St New York, NY 10036 United States"
		},
		{
			"name": "The High Line",
			"latitude": 40.748,
			"longitude": -74.0048,
			"venue_type": "PARK",
			"rating": 4.7,
			"address": "New York, NY 10011 United States"
		},
		{
			"name": "Whole Foods Market",
			"latitude": 40.7348,
			"longitude": -73.9912,
			"venue_type": "GROCERY",
			"rating": 4.2,
			"address": "4 Union Square South NY 10003 United States"
		},
		{
			"name": "Fairway Market of Chelsea",
			"latitude": 40.7445,
			"longitude": -73.9914,
			"venue_type": "GROCERY",
			"rating": 4.2,
			"address": "766 6th Ave New York, NY 10010 United States"
		},
		{
			"name": "Madison Square Park",
			"latitude": 40.7422,
			"longitude": -73.988,
			"venue_type": "PARK",
			"rating": 4.6,
			"address": "11 Madison Ave New York, NY 10010 United States"
		},
		{
			"name": "Clement Clarke Moore Park",
			"latitude": 40.7466,
			"longitude": -74.0044,
			"venue_type": "PARK",
			"rating": 4.3,
			"address": "10th Avenue & W 22nd St New York, NY 10011 United States"
		},
		{
			"name": "Boyar Gifts",
			"latitude": 40.7354,
			"longitude": -74.0051,
			"venue_type": "GIFTS",
			"rating": 4.8,
			"address": "388 Bleecker St New York, NY 10014 United States"
		},
		{
			"name": "Burlington",
			"latitude": 40.7427,
			"longitude": -73.9933,
			"venue_type": "APPAREL",
			"rating": 4.0,
			"address": "707 6th Ave New York, NY 10010 United States"
		},
		{
			"name": "NYC Gifts",
			"latitude": 40.7527,
			"longitude": -73.986,
			"venue_type": "GIFTS",
			"rating": 4.3,
			"address": "1027 6th Ave New York, NY 10018 United States"
		}
	],
	"Lower Manhattan": [
		{
			"name": "MUSEUM OF ICE CREAM",
			"latitude": 40.7239,
			"longitude": -73.9979,
			"venue_type": "TOURIST_DESTINATION",
			"rating": 4.1,
			"address": "558 Broadway New York, NY 10012 United States"
		},
		{
			"name": "Westside Market NYC",
			"latitude": 40.7351,
			"longitude": -73.9863,
			"venue_type": "GROCERY",
			"rating": 4.1,
			"address": "180 3rd Ave New York, NY 10003 United States"
		},
		{
			"name": "State & Liberty Clothing",
			"latitude": 40.7224,
			"longitude": -73.9967,
			"venue_type": "APPAREL",
			"rating": 4.5,
			"address": "57 Spring St New York, NY 10012 United States"
		},
		{
			"name": "C'H'C'M'",
			"latitude": 40.727,
			"longitude": -73.9946,
			"venue_type": "APPAREL",
			"rating": 4.6,
			"address": "2 Bond St New York, NY 10012 United States"
		},
		{
			"name": "Only NY",
			"latitude": 40.7202,
			"longitude": -73.984,
			"venue_type": "APPAREL",
			"rating": 4.3,
			"address": "176 Stanton St New York, NY 10002 United States"
		},
		{
			"name": "Mulberry Market NYC",
			"latitude": 40.7233,
			"longitude": -73.9961,
			"venue_type": "SUPERMARKET",
			"rating": 4.3,
			"address": "251 Mulberry St New York, NY 10012 United States"
		},
		{
			"name": "UNIQLO Soho Store",
			"latitude": 40.7235,
			"longitude": -73.9982,
			"venue_type": "APPAREL",
			"rating": 4.4,
			"address": "546 Broadway New York, NY 10012 United States"
		},
		{
			"name": "World Of Gifts Inc. Gifts & Luggage",
			"latitude": 40.7121,
			"longitude": -74.0107,
			"venue_type": "GIFTS",
			"rating": 4.5,
			"address": "Vesey St New York, NY 10007 United States"
		},
		{
			"name": "Forever 21",
			"latitude": 40.7244,
			"longitude": -73.9974,
			"venue_type": "APPAREL",
			"rating": 3.8,
			"address": "568 Broadway New York, NY 10012 United States"
		}
	],
	"Midtown Manhattan": [
		{
			"name": "The Escape Game NYC",
			"latitude": 40.7519,
			"longitude": -73.9797,
			"venue_type": "OTHER",
			"rating": 5.0,
			"address": "295 Madison Ave New York, NY 10017 United States"
		},
		{
			"name": "Express",
			"latitude": 40.7587,
			"longitude": -73.9848,
			"venue_type": "APPAREL",
			"rating": 4.4,
			"address": "1552 Broadway New York, NY 10036 United States"
		},
		{
			"name": "Hudson Market Place",
			"latitude": 40.7641,
			"longitude": -73.9887,
			"venue_type": "GROCERY",
			"rating": 3.8,
			"address": "755 9th Ave New York, NY 10019 United States"
		},
		{
			"name": "SUMMIT One Vanderbilt",
			"latitude": 40.7528,
			"longitude": -73.9787,
			"venue_type": "TOURIST_DESTINATION",
			"rating": 4.5,
			"address": "45 E 42nd St New York, NY 10017 United States"
		},
		{
			"name": "Museum of Arts and Design",
			"latitude": 40.7674,
			"longitude": -73.9819,
			"venue_type": "MUSEUM",
			"rating": 4.2,
			"address": "2 Columbus Cir New York, NY 10019 United States"
		},
		{
			"name": "Spyscape",
			"latitude": 40.7653,
			"longitude": -73.9837,
			"venue_type": "MUSEUM",
			"rating": 4.5,
			"address": "928 8th Ave New York, NY 10019 United States"
		},
		{
			"name": "The Museum Store",
			"latitude": 40.7613,
			"longitude": -73.9778,
			"venue_type": "GIFTS",
			"rating": 4.5,
			"address": "11 W 53rd St New York, NY 10019 United States"
		},
		{
			"name": "Father Duffy Square",
			"latitude": 40.759,
			"longitude": -73.985,
			"venue_type": "TOURIST_DESTINATION",
			"rating": 4.6,
			"address": "7th Ave & W 47th St New York, NY 10036 United States"
		},
		{
			"name": "New York Transit Museum Gallery & Store",
			"latitude": 40.7525,
			"longitude": -73.9774,
			"venue_type": "MUSEUM",
			"rating": 4.3,
			"address": "89 E 42nd St New York, NY 10001 United States"
		},
		{
			"name": "Bergdorf Goodman's Men's Store",
			"latitude": 40.7632,
			"longitude": -73.9734,
			"venue_type": "APPAREL",
			"rating": 4.0,
			"address": "745 5th Ave New York, NY 10022 United States"
		},
		{
			"name": "Empire State Building",
			"latitude": 40.7484,
			"longitude": -73.9857,
			"venue_type": "TOURIST_DESTINATION",
			"rating": 4.7,
			"address": "20 W 34th St. New York, NY 10001 United States"
		},
		{
			"name": "Gotham Gifts",
			"latitude": 40.7604,
			"longitude": -73.9879,
			"venue_type": "GIFTS",
			"rating": 5.0,
			"address": "767 8th Ave New York, NY 10036 United States"
		},
		{
			"name": "Wow! Custom Tees",
			"latitude": 40.7507,
			"longitude": -73.9856,
			"venue_type": "APPAREL",
			"rating": 4.3,
			"address": "47 W 36 St ground floor New York, NY 10018 United States"
		},
		{
			"name": "Grand Slam New York",
			"latitude": 40.7592,
			"longitude": -73.9854,
			"venue_type": "SOUVENIR_SHOP",
			"rating": 4.3,
			"address": "1557 Broadway New York, NY 10036 United States"
		},
		{
			"name": "Gucci",
			"latitude": 40.7623,
			"longitude": -73.9739,
			"venue_type": "APPAREL",
			"rating": 4.3,
			"address": "725 5th Ave New York, NY 10022 United States"
		},
		{
			"name": "Intrepid Sea, Air & Space Museum",
			"latitude": 40.7645,
			"longitude": -73.9996,
			"venue_type": "MUSEUM",
			"rating": 4.6,
			"address": "Pier 86 W 46th St New York, NY 10036 United States"
		},
		{
			"name": "One Times Square",
			"latitude": 40.7564,
			"longitude": -73.9865,
			"venue_type": "TOURIST_DESTINATION",
			"rating": 4.6,
			"address": "1 Times Sq New York, NY 10036 United States"
		},
		{
			"name": "Nordstrom Men's Store",
			"latitude": 40.7667,
			"longitude": -73.9821,
			"venue_type": "SHOPPING_CENTER",
			"rating": 4.5,
			"address": "235 W 57th St New York, NY 10019 United States"
		},
		{
			"name": "The Morgan Library & Museum",
			"latitude": 40.7492,
			"longitude": -73.9814,
			"venue_type": "MUSEUM",
			"rating": 4.7,
			"address": "225 Madison Ave New York, NY 10016 United States"
		},
		{
			"name": "Rockefeller Center",
			"latitude": 40.7587,
			"longitude": -73.9787,
			"venue_type": "HISTORICAL",
			"rating": 4.7,
			"address": "45 Rockefeller Plaza New York, NY 10111 United States"
		},
		{
			"name": "Bryant Park",
			"latitude": 40.7536,
			"longitude": -73.9832,
			"venue_type": "PARK",
			"rating": 4.7,
			"address": "New York, NY 10018 United States"
		},
		{
			"name": "Amish Market East",
			"latitude": 40.7518,
			"longitude": -73.9715,
			"venue_type": "GROCERY",
			"rating": 4.4,
			"address": "240 E 45th St New York, NY 10017 United States"
		},
		{
			"name": "Hershey's Chocolate World",
			"latitude": 40.7593,
			"longitude": -73.9843,
			"venue_type": "DESSERT",
			"rating": 4.6,
			"address": "20 Times Square 701 7th Ave New York, NY 10036 United States"
		},
		{
			"name": "Mandu Apparel and Accessories KPOP Store",
			"latitude": 40.767,
			"longitude": -73.983,
			"venue_type": "APPAREL",
			"rating": 4.5,
			"address": "1000 8th Ave STE 10 New York, NY 10019 United States"
		},
		{
			"name": "The Atrium",
			"latitude": 40.7581,
			"longitude": -73.9699,
			"venue_type": "SHOPPING_CENTER",
			"rating": 4.2,
			"address": "601 Lexington Avenue 153 E 53rd St New York, NY 10022 United States"
		},
		{
			"name": "Chanel",
			"latitude": 40.7628,
			"longitude": -73.9728,
			"venue_type": "APPAREL",
			"rating": 3.9,
			"address": "15 E 57th St New York, NY 10022 United States"
		},
		{
			"name": "UNIQLO",
			"latitude": 40.7604,
			"longitude": -73.9762,
			"venue_type": "APPAREL",
			"rating": 4.5,
			"address": "660 5th Ave New York, NY 10103 United States"
		},
		{
			"name": "New York Attitude Gift shop",
			"latitude": 40.7637,
			"longitude": -73.9812,
			"venue_type": "SOUVENIR_SHOP",
			"rating": 4.0,
			"address": "843 7th Ave New York, NY 10019 United States"
		},
		{
			"name": "Chrysler Building",
			"latitude": 40.7516,
			"longitude": -73.9755,
			"venue_type": "TOURIST_DESTINATION",
			"rating": 4.6,
			"address": "405 Lexington Ave New York, NY 10174 United States"
		},
		{
			"name": "Times Square",
			"latitude": 40.758,
			"longitude": -73.9855,
			"venue_type": "OTHER",
			"rating": 4.7,
			"address": "Manhattan, NY 10036 United States"
		},
		{
			"name": "Circle Line Sightseeing Cruises",
			"latitude": 40.7629,
			"longitude": -74.0015,
			"venue_type": "OTHER",
			"rating": 4.5,
			"address": "83 North River Piers West 43rd Street and 12th Ave New York, NY 10036 United States"
		},
		{
			"name": "Murray Hill Market",
			"latitude": 40.7462,
			"longitude": -73.9797,
			"venue_type": "GROCERY",
			"rating": 3.8,
			"address": "136 E 34th St New York, NY 10016 United States"
		},
		{
			"name": "Turnstyle Underground Market",
			"latitude": 40.7669,
			"longitude": -73.983,
			"venue_type": "MARKET",
			"rating": 4.4,
			"address": "1000 S 8th Ave New York, NY 10019 United States"
		},
		{
			"name": "Grand Central Market",
			"latitude": 40.7526,
			"longitude": -73.9768,
			"venue_type": "MARKET",
			"rating": 4.5,
			"address": "89 E 42nd St New York, NY 10017 United States"
		},
		{
			"name": "Superdry",
			"latitude": 40.7494,
			"longitude": -73.9861,
			"venue_type": "APPAREL",
			"rating": 4.3,
			"address": "21-25 W 34th St. New York, NY 10001 United States"
		},
		{
			"name": "Edwynn Houk Gallery",
			"latitude": 40.7633,
			"longitude": -73.9735,
			"venue_type": "ARTS",
			"rating": 4.8,
			"address": "745 5th Ave 4th floor New York, NY 10151 United States"
		},
		{
			"name": "Hudson Market",
			"latitude": 40.7708,
			"longitude": -73.9916,
			"venue_type": "GROCERY",
			"rating": 3.9,
			"address": "601 W 57th St New York, NY 10019 United States"
		},
		{
			"name": "Whole Foods Market",
			"latitude": 40.7593,
			"longitude": -73.9664,
			"venue_type": "GROCERY",
			"rating": 4.2,
			"address": "226 E 57th St New York, NY 10022 United States"
		},
		{
			"name": "RiseNY",
			"latitude": 40.7576,
			"longitude": -73.9852,
			"venue_type": "MUSEUM",
			"rating": 4.5,
			"address": "160 W 45th St New York, NY 10036 United States"
		},
		{
			"name": "St. Patrick's Cathedral",
			"latitude": 40.7586,
			"longitude": -73.9762,
			"venue_type": "CHURCH",
			"rating": 4.8,
			"address": "5th Ave New York, NY 10022 United States"
		},
		{
			"name": "St. Bartholomew's Church",
			"latitude": 40.7575,
			"longitude": -73.9734,
			"venue_type": "CHURCH",
			"rating": 4.6,
			"address": "325 Park Ave New York, NY 10022 United States"
		},
		{
			"name": "Prada New York 5th Avenue",
			"latitude": 40.7627,
			"longitude": -73.9745,
			"venue_type": "APPAREL",
			"rating": 3.8,
			"address": "724 5th Ave New York, NY 10019 United States"
		},
		{
			"name": "Amish Market",
			"latitude": 40.7633,
			"longitude": -73.9894,
			"venue_type": "GROCERY",
			"rating": 4.5,
			"address": "731 9th Ave New York, NY 10019 United States"
		},
		{
			"name": "I Love NY Gifts",
			"latitude": 40.7625,
			"longitude": -73.9836,
			"venue_type": "GIFTS",
			"rating": 3.6,
			"address": "1653 Broadway New York, NY 10019 United States"
		},
		{
			"name": "St. Vartan Armenian Apostolic Cathedral",
			"latitude": 40.7451,
			"longitude": -73.9752,
			"venue_type": "CHURCH",
			"rating": 4.6,
			"address": "630 2nd Ave New York, NY 10016 United States"
		},
		{
			"name": "The Museum of Modern Art",
			"latitude": 40.7614,
			"longitude": -73.9776,
			"venue_type": "MUSEUM",
			"rating": 4.6,
			"address": "11 W 53rd St New York, NY 10019 United States"
		},
		{
			"name": "Paley Park",
			"latitude": 40.7602,
			"longitude": -73.9751,
			"venue_type": "PARK",
			"rating": 4.5,
			"address": "3 E 53rd St New York, NY 10022 United States"
		},
		{
			"name": "Top of The Rock",
			"latitude": 40.7593,
			"longitude": -73.9794,
			"venue_type": "TOURIST_DESTINATION",
			"rating": 4.7,
			"address": "30 Rockefeller Plaza New York, NY 10112 United States"
		},
		{
			"name": "Library Walk",
			"latitude": 40.7517,
			"longitude": -73.9784,
			"venue_type": "TOURIST_DESTINATION",
			"rating": 4.7,
			"address": "Park Ave & E 41st St New York, NY 10017 United States"
		},
		{
			"name": "Souvenirs LLC",
			"latitude": 40.7492,
			"longitude": -73.9836,
			"venue_type": "GIFTS",
			"rating": 4.2,
			"address": "377 5th Ave New York, NY 10016 United States"
		},
		{
			"name": "The Market @ Mercedes House",
			"latitude": 40.7677,
			"longitude": -73.9916,
			"venue_type": "SUPERMARKET",
			"rating": 4.3,
			"address": "550 W 54th St New York, NY 10019 United States"
		},
		{
			"name": "I Love NY By Phantom Of Broadway",
			"latitude": 40.7606,
			"longitude": -73.9848,
			"venue_type": "SOUVENIR_SHOP",
			"rating": 3.3,
			"address": "1607 Broadway New York, NY 10019 United States"
		},
		{
			"name": "CANALI",
			"latitude": 40.763,
			"longitude": -73.9723,
			"venue_type": "APPAREL",
			"rating": 4.5,
			"address": "600 Madison Ave New York, NY 10022 United States"
		}
	],
	"Other": [
		{
			"name": "Franklin D. Roosevelt Four Freedoms State Park",
			"latitude": 40.7506,
			"longitude": -73.9605,
			"venue_type": "PARK",
			"rating": 4.7,
			"address": "1 FDR Four Freedoms Park 1 FDR Four Freedoms Park New York, NY 10044 United States"
		},
		{
			"name": "Hamilton Park",
			"latitude": 40.7716,
			"longitude": -74.0161,
			"venue_type": "PARK",
			"rating": 4.8,
			"address": "Boulevard East Hudson Pl Weehawken, NJ 07086 United States"
		},
		{
			"name": "Statue of Liberty",
			"latitude": 40.6893,
			"longitude": -74.0445,
			"venue_type": "HISTORICAL",
			"rating": 4.7,
			"address": "New York, NY 10004 United States"
		},
		{
			"name": "Ward's Island Bridge",
			"latitude": 40.786,
			"longitude": -73.9372,
			"venue_type": "BRIDGE",
			"rating": 4.6,
			"address": "NY 10035 United States"
		},
		{
			"name": "Westside Market NYC",
			"latitude": 40.7318,
			"longitude": -73.9887,
			"venue_type": "GROCERY",
			"rating": 4.4,
			"address": "84 3rd Ave New York, NY 10003 United States"
		},
		{
			"name": "Madison Avenue Bridge",
			"latitude": 40.8141,
			"longitude": -73.9331,
			"venue_type": "BRIDGE",
			"rating": 4.1,
			"address": "Harlem River Dr New York, NY 10037 United States"
		},
		{
			"name": "Robert F. Kennedy Bridge",
			"latitude": 40.7797,
			"longitude": -73.9266,
			"venue_type": "BRIDGE",
			"rating": 4.2,
			"address": "NY 10035 United States"
		}
	],
	"Upper East Side": [
		{
			"name": "Athleta",
			"latitude": 40.7783,
			"longitude": -73.954,
			"venue_type": "APPAREL",
			"rating": 4.4,
			"address": "1517 3rd Ave New York, NY 10028 United States"
		},
		{
			"name": "J.Crew Men's Shop",
			"latitude": 40.7766,
			"longitude": -73.9622,
			"venue_type": "APPAREL",
			"rating": 4.5,
			"address": "1040 Madison Ave New York, NY 10075 United States"
		},
		{
			"name": "JAMES PERSE",
			"latitude": 40.7795,
			"longitude": -73.96,
			"venue_type": "APPAREL",
			"rating": 4.6,
			"address": "1128 Madison Ave New York, NY 10028 United States"
		},
		{
			"name": "Fivestory New York",
			"latitude": 40.7761,
			"longitude": -73.9625,
			"venue_type": "APPAREL",
			"rating": 4.0,
			"address": "1020 Madison Ave New York, NY 10075 United States"
		},
		{
			"name": "ZIMMERMANN",
			"latitude": 40.7724,
			"longitude": -73.9653,
			"venue_type": "APPAREL",
			"rating": 4.0,
			"address": "900 Madison Ave New York, NY 10021 United States"
		},
		{
			"name": "Cooper Hewitt, Smithsonian Design Museum",
			"latitude": 40.7844,
			"longitude": -73.9579,
			"venue_type": "MUSEUM",
			"rating": 4.5,
			"address": "2 E 91st St New York, NY 10128 United States"
		},
		{
			"name": "Nordstrom Local Upper East Side",
			"latitude": 40.7705,
			"longitude": -73.9598,
			"venue_type": "APPAREL",
			"rating": 4.4,
			"address": "1273 3rd Ave New York, NY 10021 United States"
		},
		{
			"name": "Acquavella",
			"latitude": 40.7762,
			"longitude": -73.9627,
			"venue_type": "ARTS",
			"rating": 4.6,
			"address": "18 E 79th St New York, NY 10075 United States"
		},
		{
			"name": "The RealReal",
			"latitude": 40.771,
			"longitude": -73.9662,
			"venue_type": "SHOPPING",
			"rating": 2.7,
			"address": "870 Madison Ave New York, NY 10021 United States"
		},
		{
			"name": "Old Navy",
			"latitude": 40.7796,
			"longitude": -73.9553,
			"venue_type": "APPAREL",
			"rating": 4.5,
			"address": "147 East 86th St New York, NY 10028 United States"
		},
		{
			"name": "La Boutique Resale Consignments",
			"latitude": 40.7798,
			"longitude": -73.9599,
			"venue_type": "SHOPPING",
			"rating": 4.2,
			"address": "1132 Madison Ave 2nd Floor New York, NY 10028 United States"
		},
		{
			"name": "Ralph Lauren Men's Flagship",
			"latitude": 40.7715,
			"longitude": -73.9654,
			"venue_type": "APPAREL",
			"rating": 4.3,
			"address": "867 Madison Ave New York, NY 10021 United States"
		},
		{
			"name": "Church of St. Ignatius Loyola",
			"latitude": 40.7789,
			"longitude": -73.9587,
			"venue_type": "CHURCH",
			"rating": 4.8,
			"address": "980 Park Ave New York, NY 10028 United States"
		},
		{
			"name": "Solomon R. Guggenheim Museum",
			"latitude": 40.783,
			"longitude": -73.959,
			"venue_type": "MUSEUM",
			"rating": 4.3,
			"address": "1071 5th Ave New York, NY 10128 United States"
		},
		{
			"name": "H&M",
			"latitude": 40.7792,
			"longitude": -73.9554,
			"venue_type": "APPAREL",
			"rating": 4.0,
			"address": "150 East 86th St New York, NY 10028 United States"
		},
		{
			"name": "rag & bone",
			"latitude": 40.7696,
			"longitude": -73.9676,
			"venue_type": "APPAREL",
			"rating": 4.3,
			"address": "11 E 68th St New York, NY 10065 United States"
		},
		{
			"name": "Carnegie Mansion",
			"latitude": 40.7843,
			"longitude": -73.9578,
			"venue_type": "MUSEUM",
			"rating": 4.1,
			"address": "2 E 91st St New York, NY 10128 United States"
		},
		{
			"name": "Carolina Herrera",
			"latitude": 40.769,
			"longitude": -73.9677,
			"venue_type": "APPAREL",
			"rating": 4.2,
			"address": "802 Madison Ave New York, NY 10065 United States"
		},
		{
			"name": "Grace's Marketplace",
			"latitude": 40.7664,
			"longitude": -73.9603,
			"venue_type": "GROCERY",
			"rating": 4.2,
			"address": "1299 2nd Ave New York, NY 10065 United States"
		},
		{
			"name": "Westside Market NYC",
			"latitude": 40.7834,
			"longitude": -73.9525,
			"venue_type": "GROCERY",
			"rating": 4.0,
			"address": "1407 Lexington Ave New York, NY 10128 United States"
		},
		{
			"name": "Temple Emanu-El",
			"latitude": 40.768,
			"longitude": -73.9698,
			"venue_type": "SYNAGOGUE",
			"rating": 4.7,
			"address": "1 E 65th St New York, NY 10065 United States"
		},
		{
			"name": "Tramway Plaza",
			"latitude": 40.7609,
			"longitude": -73.9644,
			"venue_type": "PARK",
			"rating": 4.6,
			"address": "254 E 60th St New York, NY 10022 United States"
		},
		{
			"name": "VALENTINO",
			"latitude": 40.7695,
			"longitude": -73.9669,
			"venue_type": "APPAREL",
			"rating": 3.9,
			"address": "821 Madison Ave New York, NY 10065 United States"
		},
		{
			"name": "St. Catherine's Park",
			"latitude": 40.7652,
			"longitude": -73.9587,
			"venue_type": "PARK",
			"rating": 4.4,
			"address": "1245 1st Ave. New York, NY 10065 United States"
		},
		{
			"name": "Bottega Veneta New York Flagship",
			"latitude": 40.767,
			"longitude": -73.9692,
			"venue_type": "APPAREL",
			"rating": 3.6,
			"address": "740 Madison Ave New York, NY 10065 United States"
		},
		{
			"name": "The 92nd Street Y, New York",
			"latitude": 40.7829,
			"longitude": -73.9525,
			"venue_type": "OTHER",
			"rating": 4.1,
			"address": "1395 Lexington Ave New York, NY 10128 United States"
		},
		{
			"name": "The New York Society Library",
			"latitude": 40.7763,
			"longitude": -73.9614,
			"venue_type": "LIBRARY",
			"rating": 4.7,
			"address": "53 E 79th St New York, NY 10075 United States"
		},
		{
			"name": "Fox's of Manhattan",
			"latitude": 40.7778,
			"longitude": -73.9544,
			"venue_type": "APPAREL",
			"rating": 4.5,
			"address": "1501 3rd Avenue E 85th St New York, 10028 United States"
		},
		{
			"name": "The Jewish Museum",
			"latitude": 40.7853,
			"longitude": -73.9574,
			"venue_type": "MUSEUM",
			"rating": 4.4,
			"address": "1109 5th Ave & E 92nd St New York, 10128 United States"
		},
		{
			"name": "Ralph Lauren Women's Flagship",
			"latitude": 40.7717,
			"longitude": -73.9658,
			"venue_type": "APPAREL",
			"rating": 4.5,
			"address": "888 Madison Ave New York, NY 10021 United States"
		}
	],
	"Upper Manhattan": [
		{
			"name": "Gotham Plaza",
			"latitude": 40.8042,
			"longitude": -73.9365,
			"venue_type": "SHOPPING_CENTER",
			"rating": 4.4,
			"address": "149-169 E 125th St New York, NY 10035 United States"
		},
		{
			"name": "Manhattan Food Market",
			"latitude": 40.8084,
			"longitude": -73.9546,
			"venue_type": "GROCERY",
			"rating": 4.2,
			"address": "507 Manhattan Ave New York, NY 10027 United States"
		},
		{
			"name": "NiLu Gift Boutique",
			"latitude": 40.8045,
			"longitude": -73.9483,
			"venue_type": "GIFTS",
			"rating": 4.7,
			"address": "191 Malcolm X Blvd New York, NY 10026 United States"
		},
		{
			"name": "City Fresh Market",
			"latitude": 40.799,
			"longitude": -73.9418,
			"venue_type": "SUPERMARKET",
			"rating": 4.2,
			"address": "125 E 116th St New York, NY 10029 United States"
		},
		{
			"name": "East River Plaza",
			"latitude": 40.7948,
			"longitude": -73.9321,
			"venue_type": "SHOPPING_CENTER",
			"rating": 4.3,
			"address": "517 E 117th St New York, NY 10035 United States"
		},
		{
			"name": "City Fresh Market",
			"latitude": 40.8009,
			"longitude": -73.9381,
			"venue_type": "SUPERMARKET",
			"rating": 4.1,
			"address": "2212 3rd Ave #3536 New York, NY 10035 United States"
		},
		{
			"name": "Museum of the City of New York",
			"latitude": 40.7925,
			"longitude": -73.9519,
			"venue_type": "MUSEUM",
			"rating": 4.5,
			"address": "1220 5th Ave New York, NY 10029 United States"
		},
		{
			"name": "City Fresh Market",
			"latitude": 40.7911,
			"longitude": -73.9431,
			"venue_type": "GROCERY",
			"rating": 4.1,
			"address": "235 E 106th St #4005 New York, NY 10029 United States"
		},
		{
			"name": "El Museo del Barrio",
			"latitude": 40.7931,
			"longitude": -73.9514,
			"venue_type": "MUSEUM",
			"rating": 4.4,
			"address": "1230 5th Ave New York, NY 10029 United States"
		},
		{
			"name": "La Marqueta",
			"latitude": 40.7986,
			"longitude": -73.9438,
			"venue_type": "MARKET",
			"rating": 4.3,
			"address": "1590 Park Ave New York, NY 10029 United States"
		}
	],
	"Upper West Side": [
		{
			"name": "Strawberry Fields",
			"latitude": 40.7758,
			"longitude": -73.9752,
			"venue_type": "TOURIST_DESTINATION",
			"rating": 4.6,
			"address": "Q2GG+83 New York, NY 10019 United States"
		},
		{
			"name": "Bethesda Terrace",
			"latitude": 40.7739,
			"longitude": -73.971,
			"venue_type": "HISTORICAL",
			"rating": 4.7,
			"address": "New York, NY 10024 United States"
		},
		{
			"name": "Central Markets",
			"latitude": 40.8008,
			"longitude": -73.9593,
			"venue_type": "SUPERMARKET",
			"rating": 3.8,
			"address": "300 W 110th St New York, NY 10025 United States"
		},
		{
			"name": "Nicholas Roerich Museum",
			"latitude": 40.8029,
			"longitude": -73.969,
			"venue_type": "MUSEUM",
			"rating": 4.8,
			"address": "319 W 107th St New York, NY 10025 United States"
		},
		{
			"name": "The Mall and Literary Walk",
			"latitude": 40.7724,
			"longitude": -73.9716,
			"venue_type": "SCENIC_POINT",
			"rating": 4.8,
			"address": "The Mall New York, NY 10022 United States"
		},
		{
			"name": "Westside Market NYC",
			"latitude": 40.8042,
			"longitude": -73.9663,
			"venue_type": "GROCERY",
			"rating": 4.3,
			"address": "2840 Broadway New York, NY 10025 United States"
		},
		{
			"name": "Cedar Hill",
			"latitude": 40.7772,
			"longitude": -73.9662,
			"venue_type": "OTHER",
			"rating": -1.0,
			"address": "East Dr. & 79th St Transverse New York, 10021 United States"
		},
		{
			"name": "East Meadow",
			"latitude": 40.7901,
			"longitude": -73.9557,
			"venue_type": "PARK",
			"rating": -1.0,
			"address": "5th Ave New York, NY 10029 United States"
		},
		{
			"name": "General Grant National Memorial",
			"latitude": 40.8134,
			"longitude": -73.9631,
			"venue_type": "OTHER",
			"rating": 4.5,
			"address": "W 122nd St & Riverside Dr New York, 10027 United States"
		},
		{
			"name": "Hayden Planetarium",
			"latitude": 40.7813,
			"longitude": -73.9738,
			"venue_type": "OTHER",
			"rating": 4.6,
			"address": "200 Central Park West New York, NY 10024 United States"
		},
		{
			"name": "The Ravine",
			"latitude": 40.795,
			"longitude": -73.9557,
			"venue_type": "NATURE_RESERVE",
			"rating": 4.7,
			"address": "E 103rd St New York, NY 10026 United States"
		},
		{
			"name": "Cherry Hill",
			"latitude": 40.7747,
			"longitude": -73.9727,
			"venue_type": "SCENIC_POINT",
			"rating": -1.0,
			"address": "Central Park West New York, NY 10024 United States"
		},
		{
			"name": "Engineers' Gate",
			"latitude": 40.7841,
			"longitude": -73.9587,
			"venue_type": "TOURIST_DESTINATION",
			"rating": 4.8,
			"address": "2 E 90th St New York, NY 10128 United States"
		},
		{
			"name": "New-York Historical Society",
			"latitude": 40.7794,
			"longitude": -73.9739,
			"venue_type": "MUSEUM",
			"rating": 4.5,
			"address": "170 Central Park West New York, NY 10024 United States"
		},
		{
			"name": "BOSS Store",
			"latitude": 40.7686,
			"longitude": -73.9825,
			"venue_type": "APPAREL",
			"rating": 3.8,
			"address": "10 Columbus Cir #106 New York, NY 10019 United States"
		},
		{
			"name": "Riverside Park South",
			"latitude": 40.7772,
			"longitude": -73.9895,
			"venue_type": "PARK",
			"rating": 4.8,
			"address": "Riverside Blvd New York, NY 10069 United States"
		},
		{
			"name": "Dante Park",
			"latitude": 40.7718,
			"longitude": -73.9826,
			"venue_type": "PARK",
			"rating": 4.4,
			"address": "Columbus Ave & W 63rd St. New York, NY 10023 United States"
		},
		{
			"name": "The Loch",
			"latitude": 40.7946,
			"longitude": -73.9582,
			"venue_type": "PARK",
			"rating": 4.6,
			"address": "Central Park West New York, NY 10026 United States"
		},
		{
			"name": "American Museum of Natural History",
			"latitude": 40.7813,
			"longitude": -73.974,
			"venue_type": "MUSEUM",
			"rating": 4.6,
			"address": "200 Central Park West New York, NY 10024 United States"
		},
		{
			"name": "The Arsenal",
			"latitude": 40.7677,
			"longitude": -73.9713,
			"venue_type": "HISTORICAL",
			"rating": 4.4,
			"address": "830 5th Ave New York, NY 10065 United States"
		},
		{
			"name": "The Ramble",
			"latitude": 40.7779,
			"longitude": -73.9697,
			"venue_type": "PARK",
			"rating": 4.8,
			"address": "79th St Transverse New York, NY 10024 United States"
		},
		{
			"name": "Rose Center for Earth and Space",
			"latitude": 40.7818,
			"longitude": -73.9731,
			"venue_type": "MUSEUM",
			"rating": 4.6,
			"address": "81st Street between Central Park West and Columbus Avenue New York, NY 10024 United States"
		},
		{
			"name": "Ancient Playground",
			"latitude": 40.7807,
			"longitude": -73.9614,
			"venue_type": "PARK",
			"rating": 4.6,
			"address": "Museum Mile New York, NY 10028 United States"
		},
		{
			"name": "Central Park Carousel",
			"latitude": 40.7699,
			"longitude": -73.9753,
			"venue_type": "OTHER",
			"rating": 4.3,
			"address": "1802 E 65th St New York, NY 10065 United States"
		},
		{
			"name": "Arthur Ross Pinetum",
			"latitude": 40.7834,
			"longitude": -73.9667,
			"venue_type": "BOTANICAL_GARDEN",
			"rating": 4.7,
			"address": "86th St Transverse New York, NY 10024 United States"
		},
		{
			"name": "The Riverside Church",
			"latitude": 40.8119,
			"longitude": -73.9631,
			"venue_type": "CHURCH",
			"rating": 4.6,
			"address": "490 Riverside Dr New York, NY 10027 United States"
		},
		{
			"name": "Umpire Rock",
			"latitude": 40.7691,
			"longitude": -73.9778,
			"venue_type": "SCENIC_POINT",
			"rating": 4.6,
			"address": "Central Park S New York, NY 10019 United States"
		},
		{
			"name": "The Cathedral Church of St. John the Divine",
			"latitude": 40.8038,
			"longitude": -73.9619,
			"venue_type": "CHURCH",
			"rating": 4.5,
			"address": "1047 Amsterdam Ave New York, NY 10025 United States"
		},
		{
			"name": "West NYC",
			"latitude": 40.7783,
			"longitude": -73.9803,
			"venue_type": "SHOPPING",
			"rating": 4.4,
			"address": "147 W 72nd St New York, NY 10023 United States"
		},
		{
			"name": "Firemen's Memorial",
			"latitude": 40.7986,
			"longitude": -73.9733,
			"venue_type": "HISTORICAL",
			"rating": 4.7,
			"address": "West 100th Street Riverside Dr New York, NY 10025 United States"
		},
		{
			"name": "Ladies Pavilion",
			"latitude": 40.7776,
			"longitude": -73.973,
			"venue_type": "HISTORICAL",
			"rating": 4.7,
			"address": "W. 77th St & West Dr New York, 10024 United States"
		},
		{
			"name": "H&M",
			"latitude": 40.7686,
			"longitude": -73.9835,
			"venue_type": "APPAREL",
			"rating": 4.2,
			"address": "10 Columbus Cir New York, NY 10019 United States"
		},
		{
			"name": "Central Park Zoo",
			"latitude": 40.7678,
			"longitude": -73.9718,
			"venue_type": "ZOO",
			"rating": 4.4,
			"address": "East 64th Street New York, NY 10021 United States"
		},
		{
			"name": "Alice in Wonderland",
			"latitude": 40.775,
			"longitude": -73.9665,
			"venue_type": "OTHER",
			"rating": 4.6,
			"address": "E 74th St New York, NY 10021 United States"
		},
		{
			"name": "Children's Museum Of Manhattan",
			"latitude": 40.7859,
			"longitude": -73.9773,
			"venue_type": "MUSEUM",
			"rating": 4.2,
			"address": "212 W 83rd St New York, NY 10024 United States"
		},
		{
			"name": "Manhattan Jewish Experience",
			"latitude": 40.7871,
			"longitude": -73.9733,
			"venue_type": "SYNAGOGUE",
			"rating": 4.7,
			"address": "131 W 86th St 10th floor New York, NY 10024 United States"
		},
		{
			"name": "Balto Statue",
			"latitude": 40.77,
			"longitude": -73.971,
			"venue_type": "TOURIST_DESTINATION",
			"rating": 4.7,
			"address": "East Dr New York, NY 10022 United States"
		},
		{
			"name": "Charles A. Dana Discovery Center",
			"latitude": 40.7971,
			"longitude": -73.9515,
			"venue_type": "VISITOR_CENTER",
			"rating": 4.6,
			"address": "Central Park N New York, NY 10029 United States"
		},
		{
			"name": "Hippo Playground",
			"latitude": 40.7931,
			"longitude": -73.978,
			"venue_type": "PARK",
			"rating": 4.7,
			"address": "W. 91st St & Riverside Dr New York, NY 10025 United States"
		},
		{
			"name": "The Blockhouse",
			"latitude": 40.7986,
			"longitude": -73.9563,
			"venue_type": "HISTORICAL",
			"rating": 4.4,
			"address": "W 109th St New York, NY 10026 United States"
		},
		{
			"name": "Summit Rock",
			"latitude": 40.7832,
			"longitude": -73.97,
			"venue_type": "SCENIC_POINT",
			"rating": 4.7,
			"address": "Central Park West New York, NY 10024 United States"
		},
		{
			"name": "Patagonia",
			"latitude": 40.783,
			"longitude": -73.9751,
			"venue_type": "APPAREL",
			"rating": 4.6,
			"address": "426 Columbus Ave New York, NY 10024 United States"
		},
		{
			"name": "Glen Span Arch",
			"latitude": 40.7947,
			"longitude": -73.9592,
			"venue_type": "BRIDGE",
			"rating": 4.8,
			"address": "W 102nd St New York, NY 10025 United States"
		},
		{
			"name": "The Obelisk",
			"latitude": 40.7796,
			"longitude": -73.9654,
			"venue_type": "TOURIST_DESTINATION",
			"rating": 4.7,
			"address": "E 81st St New York, NY 10024 United States"
		},
		{
			"name": "West Side Community Garden",
			"latitude": 40.7893,
			"longitude": -73.9718,
			"venue_type": "PARK",
			"rating": 4.8,
			"address": "123 W 89th St New York, NY 10024 United States"
		},
		{
			"name": "Westside Market NYC",
			"latitude": 40.7959,
			"longitude": -73.9713,
			"venue_type": "GROCERY",
			"rating": 4.3,
			"address": "2589 Broadway New York, NY 10025 United States"
		},
		{
			"name": "Dinosaur Playground",
			"latitude": 40.7969,
			"longitude": -73.975,
			"venue_type": "PARK",
			"rating": 4.3,
			"address": "6681 Riverside Dr New York, NY 10025 United States"
		},
		{
			"name": "River Run Playground",
			"latitude": 40.7871,
			"longitude": -73.9822,
			"venue_type": "PARK",
			"rating": 4.7,
			"address": "Riverside Dr New York, NY 10024 United States"
		},
		{
			"name": "Belvedere Castle",
			"latitude": 40.7794,
			"longitude": -73.9691,
			"venue_type": "HISTORICAL",
			"rating": 4.5,
			"address": "New York, NY 10024 United States"
		},
		{
			"name": "Sheep Meadow",
			"latitude": 40.7718,
			"longitude": -73.9748,
			"venue_type": "PARK",
			"rating": 4.8,
			"address": "1802 65th Street Transverse 1802 E 65th St New York, NY 10065 United States"
		},
		{
			"name": "Heckscher Playground",
			"latitude": 40.7685,
			"longitude": -73.9772,
			"venue_type": "PARK",
			"rating": 4.7,
			"address": "E 65th St New York, NY 10019 United States"
		},
		{
			"name": "North Woods",
			"latitude": 40.7978,
			"longitude": -73.9561,
			"venue_type": "PARK",
			"rating": 4.7,
			"address": "296 Central Park N New York, NY 10026 United States"
		},
		{
			"name": "Soldiers' and Sailors' Monument",
			"latitude": 40.792,
			"longitude": -73.979,
			"venue_type": "HISTORICAL",
			"rating": 4.5,
			"address": "Riverside Dr W 89th St New York, NY 10024 United States"
		},
		{
			"name": "Sakura Park",
			"latitude": 40.8128,
			"longitude": -73.9622,
			"venue_type": "PARK",
			"rating": 4.5,
			"address": "3916 500 Riverside Dr New York, NY 10027 United States"
		},
		{
			"name": "The Shops at Columbus Circle",
			"latitude": 40.7686,
			"longitude": -73.9832,
			"venue_type": "SHOPPING_CENTER",
			"rating": 4.4,
			"address": "10 Columbus Cir New York, NY 10019 United States"
		},
		{
			"name": "Central Park",
			"latitude": 40.7826,
			"longitude": -73.9656,
			"venue_type": "PARK",
			"rating": 4.8,
			"address": "New York, NY United States"
		},
		{
			"name": "American Folk Art Museum",
			"latitude": 40.7732,
			"longitude": -73.9815,
			"venue_type": "MUSEUM",
			"rating": 4.4,
			"address": "2 Lincoln Square New York, NY 10023 United States"
		},
		{
			"name": "ZARA",
			"latitude": 40.7743,
			"longitude": -73.9822,
			"venue_type": "APPAREL",
			"rating": 3.8,
			"address": "Broadway #1963 New York, NY 10023 United States"
		},
		{
			"name": "Diana Ross Playground",
			"latitude": 40.7823,
			"longitude": -73.971,
			"venue_type": "PARK",
			"rating": 4.3,
			"address": "Central Park West & W 81st St New York, NY 10024 United States"
		},
		{
			"name": "Conservatory Garden",
			"latitude": 40.7937,
			"longitude": -73.9525,
			"venue_type": "PARK",
			"rating": 4.8,
			"address": "1233 5th Ave New York, NY 10029 United States"
		},
		{
			"name": "Bloomingdale's Outlet",
			"latitude": 40.7791,
			"longitude": -73.9822,
			"venue_type": "SHOPPING_CENTER",
			"rating": 3.8,
			"address": "2085 Broadway New York, NY 10023 United States"
		},
		{
			"name": "Bow Bridge",
			"latitude": 40.7758,
			"longitude": -73.9718,
			"venue_type": "BRIDGE",
			"rating": 4.8,
			"address": "Central Park Bow Bridge New York, NY 10024 United States"
		},
		{
			"name": "Joan of Arc Park",
			"latitude": 40.7947,
			"longitude": -73.9764,
			"venue_type": "PARK",
			"rating": 4.6,
			"address": "Riverside Dr., between W. 91st St. and W 96th St New York, NY 10025 United States"
		},
		{
			"name": "The Metropolitan Museum of Art",
			"latitude": 40.7794,
			"longitude": -73.9632,
			"venue_type": "MUSEUM",
			"rating": 4.8,
			"address": "1000 5th Ave New York, NY 10028 United States"
		},
		{
			"name": "J.Crew Men's Shop",
			"latitude": 40.7682,
			"longitude": -73.9827,
			"venue_type": "APPAREL",
			"rating": 4.2,
			"address": "10 Columbus Cir Space 207 New York, NY 10019 United States"
		},
		{
			"name": "Hallett Nature Sanctuary",
			"latitude": 40.7666,
			"longitude": -73.975,
			"venue_type": "NATURE_RESERVE",
			"rating": 4.7,
			"address": "6th Avenue & Central Park S New York, NY 10019 United States"
		}
	]
}
